{
    "type": "FeatureCollection",
    "features": [
        {
            "type": "Feature",
            "properties": {
                "num": 1,
                "name": "155 SM City Bp XI Kopaszi",
                "addr_full": "Dombóvári út 27.",
                "city": "Budapest",
                "postcode": "1117"
            },
            "geometry": {
                "type": "Point",
                "coordinates": [
                    19.05849,
                    47.46813
                ]
            }
        },
        {
            "type": "Feature",
            "properties": {
                "num": 2,
                "name": "156 SM City Bp XI Fehér ",
                "addr_full": "Fehérvári út 45.",
                "city": "Budapest",
                "postcode": "1119"
            },
            "geometry": {
                "type": "Point",
                "coordinates": [
                    19.044583,
                    47.470002
                ]
            }
        },
        {
            "type": "Feature",
            "properties": {
                "num": 3,
                "name": "City SPAR Budapest (113)",
                "addr_full": "Bartók Béla út 51.",
                "city": "Budapest XI.",
                "postcode": "1114"
            },
            "geometry": {
                "type": "Point",
                "coordinates": [
                    19.045868,
                    47.47734
                ]
            }
        },
        {
            "type": "Feature",
            "properties": {
                "num": 4,
                "name": "City SPAR Budapest (114)",
                "addr_full": "Erzsébet körút 27.",
                "city": "Budapest VII.",
                "postcode": "1073"
            },
            "geometry": {
                "type": "Point",
                "coordinates": [
                    19.068807,
                    47.500731
                ]
            }
        },
        {
            "type": "Feature",
            "properties": {
                "num": 5,
                "name": "City SPAR Budapest (119)",
                "addr_full": "Rákóczi út 19.",
                "city": "Budapest VIII.",
                "postcode": "1088"
            },
            "geometry": {
                "type": "Point",
                "coordinates": [
                    19.064763,
                    47.495318
                ]
            }
        },
        {
            "type": "Feature",
            "properties": {
                "num": 6,
                "name": "City SPAR Budapest (120)",
                "addr_full": "Böszörményi út 38/a-b.",
                "city": "Budapest XII.",
                "postcode": "1126"
            },
            "geometry": {
                "type": "Point",
                "coordinates": [
                    19.016345,
                    47.491856
                ]
            }
        },
        {
            "type": "Feature",
            "properties": {
                "num": 7,
                "name": "City SPAR Budapest (121)",
                "addr_full": "Teréz körút 2.",
                "city": "Budapest VI.",
                "postcode": "1066"
            },
            "geometry": {
                "type": "Point",
                "coordinates": [
                    19.065528,
                    47.503351
                ]
            }
        },
        {
            "type": "Feature",
            "properties": {
                "num": 8,
                "name": "City SPAR Budapest (123)",
                "addr_full": "Thököly út 8.",
                "city": "Budapest VII.",
                "postcode": "1076"
            },
            "geometry": {
                "type": "Point",
                "coordinates": [
                    19.082898,
                    47.501759
                ]
            }
        },
        {
            "type": "Feature",
            "properties": {
                "num": 9,
                "name": "City SPAR Budapest (157)",
                "addr_full": "Bessenyei u. 8.",
                "city": "Budapest",
                "postcode": "1133"
            },
            "geometry": {
                "type": "Point",
                "coordinates": [
                    19.057786,
                    47.522397
                ]
            }
        },
        {
            "type": "Feature",
            "properties": {
                "num": 10,
                "name": "City SPAR Budapest (165)",
                "addr_full": "Vértanúk tere 1.",
                "city": "Budapest V.",
                "postcode": "1054"
            },
            "geometry": {
                "type": "Point",
                "coordinates": [
                    19.048278,
                    47.505267
                ]
            }
        },
        {
            "type": "Feature",
            "properties": {
                "num": 11,
                "name": "City SPAR Budapest (166)",
                "addr_full": "Károly körút 22-24.",
                "city": "Budapest V.",
                "postcode": "1052"
            },
            "geometry": {
                "type": "Point",
                "coordinates": [
                    19.05789,
                    47.4959
                ]
            }
        },
        {
            "type": "Feature",
            "properties": {
                "num": 12,
                "name": "City SPAR Budapest (168)",
                "addr_full": "Mester utca 1.",
                "city": "Budapest IX.",
                "postcode": "1092"
            },
            "geometry": {
                "type": "Point",
                "coordinates": [
                    19.06812,
                    47.48135
                ]
            }
        },
        {
            "type": "Feature",
            "properties": {
                "num": 13,
                "name": "City SPAR Budapest (171)",
                "addr_full": "Örs vezér tere 25.",
                "city": "Budapest X.",
                "postcode": "1106"
            },
            "geometry": {
                "type": "Point",
                "coordinates": [
                    19.1369534,
                    47.5024646
                ]
            }
        },
        {
            "type": "Feature",
            "properties": {
                "num": 14,
                "name": "City SPAR Budapest (173)",
                "addr_full": "Liszt Ferenc Nemzetközi Repülőtér, 2B terminál",
                "city": "Budapest XVIII.",
                "postcode": "1185"
            },
            "geometry": {
                "type": "Point",
                "coordinates": [
                    19.2621404,
                    47.4331769
                ]
            }
        },
        {
            "type": "Feature",
            "properties": {
                "num": 15,
                "name": "City SPAR Budapest (179)",
                "addr_full": "Tűzoltó utca 50-56.",
                "city": "Budapest",
                "postcode": "1094"
            },
            "geometry": {
                "type": "Point",
                "coordinates": [
                    19.077577,
                    47.481844
                ]
            }
        },
        {
            "type": "Feature",
            "properties": {
                "num": 16,
                "name": "City SPAR Budapest (191)",
                "addr_full": "Retek utca 4.",
                "city": "Budapest",
                "postcode": "1024"
            },
            "geometry": {
                "type": "Point",
                "coordinates": [
                    19.025903,
                    47.508069
                ]
            }
        },
        {
            "type": "Feature",
            "properties": {
                "num": 17,
                "name": "City SPAR Budapest (193)",
                "addr_full": "Andrássy út 30.",
                "city": "Budapest",
                "postcode": "1061"
            },
            "geometry": {
                "type": "Point",
                "coordinates": [
                    19.06049,
                    47.503496
                ]
            }
        },
        {
            "type": "Feature",
            "properties": {
                "num": 18,
                "name": "City SPAR Budapest (21)",
                "addr_full": "Erzsébet körút 24.",
                "city": "Budapest VII.",
                "postcode": "1073"
            },
            "geometry": {
                "type": "Point",
                "coordinates": [
                    19.06882,
                    47.50022
                ]
            }
        },
        {
            "type": "Feature",
            "properties": {
                "num": 19,
                "name": "City SPAR Budapest (24)",
                "addr_full": "Ráday utca 32.",
                "city": "Budapest IX.",
                "postcode": "1092"
            },
            "geometry": {
                "type": "Point",
                "coordinates": [
                    19.06553,
                    47.48496
                ]
            }
        },
        {
            "type": "Feature",
            "properties": {
                "num": 20,
                "name": "City SPAR Eger (821)",
                "addr_full": "Dobó István tér 1.",
                "city": "Eger",
                "postcode": "3300"
            },
            "geometry": {
                "type": "Point",
                "coordinates": [
                    20.376034,
                    47.902306
                ]
            }
        },
        {
            "type": "Feature",
            "properties": {
                "num": 21,
                "name": "City SPAR Győr (408)",
                "addr_full": "Rónay Jácint u. 12.",
                "city": "Győr",
                "postcode": "9026"
            },
            "geometry": {
                "type": "Point",
                "coordinates": [
                    17.630414,
                    47.693847
                ]
            }
        },
        {
            "type": "Feature",
            "properties": {
                "num": 22,
                "name": "City SPAR Szeged (615)",
                "addr_full": "Széchenyi tér 15.",
                "city": "Szeged",
                "postcode": "6720"
            },
            "geometry": {
                "type": "Point",
                "coordinates": [
                    20.147464,
                    46.252986
                ]
            }
        },
        {
            "type": "Feature",
            "properties": {
                "num": 23,
                "name": "DESPAR Abda (6801380)",
                "addr_full": "BÉCSI ÚT 186",
                "city": "ABDA",
                "postcode": "9151"
            },
            "geometry": {
                "type": "Point",
                "coordinates": [
                    17.52959,
                    47.70424
                ]
            }
        },
        {
            "type": "Feature",
            "properties": {
                "num": 24,
                "name": "DESPAR Balatonakarattya (6800120)",
                "addr_full": "71-es útsz.",
                "city": "Balatonakarattya",
                "postcode": "8172"
            },
            "geometry": {
                "type": "Point",
                "coordinates": [
                    18.174358,
                    47.007339
                ]
            }
        },
        {
            "type": "Feature",
            "properties": {
                "num": 25,
                "name": "DESPAR Bp., Bökényföldiút (6801530)",
                "addr_full": "BÖKÉNYFÖLDI ÚT 108",
                "city": "BUDAPEST",
                "postcode": "1165"
            },
            "geometry": {
                "type": "Point",
                "coordinates": [
                    19.216637,
                    47.501596
                ]
            }
        },
        {
            "type": "Feature",
            "properties": {
                "num": 26,
                "name": "DESPAR Bp., M5 Ecseri (6800380)",
                "addr_full": "ECSERI ÚT 9",
                "city": "BUDAPEST",
                "postcode": "1097"
            },
            "geometry": {
                "type": "Point",
                "coordinates": [
                    19.104295,
                    47.468379
                ]
            }
        },
        {
            "type": "Feature",
            "properties": {
                "num": 27,
                "name": "DESPAR Budapest (6800220)",
                "addr_full": "HUNYADI J 43587/16",
                "city": "BUDAPEST",
                "postcode": "1117"
            },
            "geometry": {
                "type": "Point",
                "coordinates": [
                    19.045871,
                    47.441259
                ]
            }
        },
        {
            "type": "Feature",
            "properties": {
                "num": 28,
                "name": "DESPAR Budapest (6800230)",
                "addr_full": "Bartók Béla út 105.",
                "city": "Budapest",
                "postcode": "1115"
            },
            "geometry": {
                "type": "Point",
                "coordinates": [
                    19.03269,
                    47.473167
                ]
            }
        },
        {
            "type": "Feature",
            "properties": {
                "num": 29,
                "name": "DESPAR Budapest (6800240)",
                "addr_full": "MOGYORÓDI ÚT 22-32",
                "city": "BUDAPEST",
                "postcode": "1149"
            },
            "geometry": {
                "type": "Point",
                "coordinates": [
                    19.112479,
                    47.505752
                ]
            }
        },
        {
            "type": "Feature",
            "properties": {
                "num": 30,
                "name": "DESPAR Budapest (6800310)",
                "addr_full": "Gyömrői út 56-62.",
                "city": "Budapest",
                "postcode": "1103"
            },
            "geometry": {
                "type": "Point",
                "coordinates": [
                    19.145673,
                    47.469668
                ]
            }
        },
        {
            "type": "Feature",
            "properties": {
                "num": 31,
                "name": "DESPAR Budapest (6800320)",
                "addr_full": "Kvassay Jenő út 3.",
                "city": "Budapest",
                "postcode": "1095"
            },
            "geometry": {
                "type": "Point",
                "coordinates": [
                    19.072883,
                    47.463477
                ]
            }
        },
        {
            "type": "Feature",
            "properties": {
                "num": 32,
                "name": "DESPAR Budapest (6800460)",
                "addr_full": "Esztena utca 1.",
                "city": "Budapest",
                "postcode": "1173"
            },
            "geometry": {
                "type": "Point",
                "coordinates": [
                    19.273494,
                    47.473494
                ]
            }
        },
        {
            "type": "Feature",
            "properties": {
                "num": 33,
                "name": "DESPAR Bátaszék (6801030)",
                "addr_full": "Mozi tér 1.",
                "city": "Bátaszék",
                "postcode": "7140"
            },
            "geometry": {
                "type": "Point",
                "coordinates": [
                    18.721481,
                    46.187048
                ]
            }
        },
        {
            "type": "Feature",
            "properties": {
                "num": 34,
                "name": "DESPAR Békéscsaba (6801540)",
                "addr_full": "GYULAI ÚT 84",
                "city": "BÉKÉSCSABA",
                "postcode": "5600"
            },
            "geometry": {
                "type": "Point",
                "coordinates": [
                    21.132333,
                    46.676447
                ]
            }
        },
        {
            "type": "Feature",
            "properties": {
                "num": 35,
                "name": "DESPAR Csém (6801190)",
                "addr_full": "13 AS FŐÚT",
                "city": "CSÉM",
                "postcode": "2949"
            },
            "geometry": {
                "type": "Point",
                "coordinates": [
                    18.09482,
                    47.67944
                ]
            }
        },
        {
            "type": "Feature",
            "properties": {
                "num": 36,
                "name": "DESPAR Debrecen (6800480)",
                "addr_full": "Külső Balmazújváosi út 1.",
                "city": "Debrecen",
                "postcode": "4031"
            },
            "geometry": {
                "type": "Point",
                "coordinates": [
                    21.579513,
                    47.545627
                ]
            }
        },
        {
            "type": "Feature",
            "properties": {
                "num": 37,
                "name": "DESPAR Diósd (6800500)",
                "addr_full": "Balatoni út 11.",
                "city": "Diósd",
                "postcode": "2049"
            },
            "geometry": {
                "type": "Point",
                "coordinates": [
                    18.944898,
                    47.403986
                ]
            }
        },
        {
            "type": "Feature",
            "properties": {
                "num": 38,
                "name": "DESPAR Dunakeszi (6800040)",
                "addr_full": "2-es útsz.",
                "city": "Dunakeszi",
                "postcode": "2120"
            },
            "geometry": {
                "type": "Point",
                "coordinates": [
                    19.126227,
                    47.628347
                ]
            }
        },
        {
            "type": "Feature",
            "properties": {
                "num": 39,
                "name": "DESPAR Eger (6801430)",
                "addr_full": "KISTÁLYAI ÚT 18",
                "city": "EGER",
                "postcode": "3300"
            },
            "geometry": {
                "type": "Point",
                "coordinates": [
                    20.404639,
                    47.86884
                ]
            }
        },
        {
            "type": "Feature",
            "properties": {
                "num": 40,
                "name": "DESPAR Enese (6801480)",
                "addr_full": "85 ÖS FŐÚT",
                "city": "ENESE",
                "postcode": "9143"
            },
            "geometry": {
                "type": "Point",
                "coordinates": [
                    17.43345,
                    47.64686
                ]
            }
        },
        {
            "type": "Feature",
            "properties": {
                "num": 41,
                "name": "DESPAR Fülöpszállás (6801020)",
                "addr_full": "HÁRMASPUSZTA 9",
                "city": "FÜLÖPSZÁLLÁS",
                "postcode": "6085"
            },
            "geometry": {
                "type": "Point",
                "coordinates": [
                    19.28374,
                    46.84314
                ]
            }
        },
        {
            "type": "Feature",
            "properties": {
                "num": 42,
                "name": "DESPAR Galambok (6801110)",
                "addr_full": "7ES FŐÚT 196KM",
                "city": "GALAMBOK",
                "postcode": "8754"
            },
            "geometry": {
                "type": "Point",
                "coordinates": [
                    17.12191,
                    46.51078
                ]
            }
        },
        {
            "type": "Feature",
            "properties": {
                "num": 43,
                "name": "DESPAR Gyöngyös (6800080)",
                "addr_full": "Róbert Károly utca",
                "city": "Gyöngyös",
                "postcode": "3200"
            },
            "geometry": {
                "type": "Point",
                "coordinates": [
                    19.927158,
                    47.774814
                ]
            }
        },
        {
            "type": "Feature",
            "properties": {
                "num": 44,
                "name": "DESPAR Karcag (6801610)",
                "addr_full": "Madarasi út 48.",
                "city": "Karcag",
                "postcode": "5300"
            },
            "geometry": {
                "type": "Point",
                "coordinates": [
                    20.912487,
                    47.321031
                ]
            }
        },
        {
            "type": "Feature",
            "properties": {
                "num": 45,
                "name": "DESPAR Keszthely (6800090)",
                "addr_full": "Tapolcai út",
                "city": "Keszthely",
                "postcode": "8360"
            },
            "geometry": {
                "type": "Point",
                "coordinates": [
                    17.271761,
                    46.773177
                ]
            }
        },
        {
            "type": "Feature",
            "properties": {
                "num": 46,
                "name": "DESPAR Mecseknádasd (6801410)",
                "addr_full": "Kültelek  070/1hrsz",
                "city": "MECSEKNÁDASD",
                "postcode": "7695"
            },
            "geometry": {
                "type": "Point",
                "coordinates": [
                    18.478856,
                    46.240782
                ]
            }
        },
        {
            "type": "Feature",
            "properties": {
                "num": 47,
                "name": "DESPAR Mezőkövesd (6801400)",
                "addr_full": "Külterület 0269/4",
                "city": "MEZŐKÖVESD",
                "postcode": "3400"
            },
            "geometry": {
                "type": "Point",
                "coordinates": [
                    20.5783,
                    47.78862
                ]
            }
        },
        {
            "type": "Feature",
            "properties": {
                "num": 48,
                "name": "DESPAR Miskolc (6800440)",
                "addr_full": "Szentpéteri kapu 78.",
                "city": "Miskolc",
                "postcode": "3526"
            },
            "geometry": {
                "type": "Point",
                "coordinates": [
                    20.784856,
                    48.127042
                ]
            }
        },
        {
            "type": "Feature",
            "properties": {
                "num": 49,
                "name": "DESPAR Nagykanizsa (6800510)",
                "addr_full": "Magyar utca 118.",
                "city": "Nagykanizsa",
                "postcode": "8800"
            },
            "geometry": {
                "type": "Point",
                "coordinates": [
                    16.985351,
                    46.466685
                ]
            }
        },
        {
            "type": "Feature",
            "properties": {
                "num": 50,
                "name": "DESPAR Nyíregyháza (6801560)",
                "addr_full": "Nyugati 1. út 11.",
                "city": "NYÍREGYHÁZA",
                "postcode": "4400"
            },
            "geometry": {
                "type": "Point",
                "coordinates": [
                    21.71246,
                    47.9024
                ]
            }
        },
        {
            "type": "Feature",
            "properties": {
                "num": 51,
                "name": "DESPAR Orosháza (6801450)",
                "addr_full": "Arany János utca 19.",
                "city": "Orosháza",
                "postcode": "5900"
            },
            "geometry": {
                "type": "Point",
                "coordinates": [
                    20.675637,
                    46.567573
                ]
            }
        },
        {
            "type": "Feature",
            "properties": {
                "num": 52,
                "name": "DESPAR Oroszlány (6801420)",
                "addr_full": "Rákóczi Ferenc út 1.",
                "city": "Oroszlány",
                "postcode": "2840"
            },
            "geometry": {
                "type": "Point",
                "coordinates": [
                    18.310374,
                    47.485307
                ]
            }
        },
        {
            "type": "Feature",
            "properties": {
                "num": 53,
                "name": "DESPAR Pacsa (6801250)",
                "addr_full": "75 ÖS FŐÚT 7 HRSZ",
                "city": "PACSA",
                "postcode": "8761"
            },
            "geometry": {
                "type": "Point",
                "coordinates": [
                    17.022276,
                    46.723627
                ]
            }
        },
        {
            "type": "Feature",
            "properties": {
                "num": 54,
                "name": "DESPAR Pilisvörösvár (6800300)",
                "addr_full": "Fő utca 10.",
                "city": "Pilisvörösvár",
                "postcode": "2085"
            },
            "geometry": {
                "type": "Point",
                "coordinates": [
                    18.897396,
                    47.615117
                ]
            }
        },
        {
            "type": "Feature",
            "properties": {
                "num": 55,
                "name": "DESPAR Poroszló (6801210)",
                "addr_full": "33-as főút, Fő út 139.",
                "city": "Poroszló",
                "postcode": "3388"
            },
            "geometry": {
                "type": "Point",
                "coordinates": [
                    20.63648,
                    47.644757
                ]
            }
        },
        {
            "type": "Feature",
            "properties": {
                "num": 56,
                "name": "DESPAR Pusztamonostor (6801150)",
                "addr_full": "32 ES FŐÚT 0102/45 HRSZ",
                "city": "PUSZTAMONOSTOR",
                "postcode": "5125"
            },
            "geometry": {
                "type": "Point",
                "coordinates": [
                    19.784923,
                    47.559039
                ]
            }
        },
        {
            "type": "Feature",
            "properties": {
                "num": 57,
                "name": "DESPAR Pécs (6800060)",
                "addr_full": "MAKAY ISTVÁN ÚT",
                "city": "PÉCS",
                "postcode": "7634"
            },
            "geometry": {
                "type": "Point",
                "coordinates": [
                    18.18017,
                    46.06501
                ]
            }
        },
        {
            "type": "Feature",
            "properties": {
                "num": 58,
                "name": "DESPAR Pécs (6800280)",
                "addr_full": "Megyeri út 65.",
                "city": "Pécs",
                "postcode": "7623"
            },
            "geometry": {
                "type": "Point",
                "coordinates": [
                    18.211641,
                    46.05622
                ]
            }
        },
        {
            "type": "Feature",
            "properties": {
                "num": 59,
                "name": "DESPAR Pér (6801370)",
                "addr_full": "FEHÉRVÁRI ÚT 25",
                "city": "PÉR",
                "postcode": "9099"
            },
            "geometry": {
                "type": "Point",
                "coordinates": [
                    17.78597,
                    47.62567
                ]
            }
        },
        {
            "type": "Feature",
            "properties": {
                "num": 60,
                "name": "DESPAR Salgótarján (6800050)",
                "addr_full": "Budapesti út 34.",
                "city": "Salgótarján",
                "postcode": "3100"
            },
            "geometry": {
                "type": "Point",
                "coordinates": [
                    19.783118,
                    48.069658
                ]
            }
        },
        {
            "type": "Feature",
            "properties": {
                "num": 61,
                "name": "DESPAR Soltvadkert (6801330)",
                "addr_full": "HALASI ÚT 1",
                "city": "SOLTVADKERT",
                "postcode": "6230"
            },
            "geometry": {
                "type": "Point",
                "coordinates": [
                    19.40925,
                    46.56501
                ]
            }
        },
        {
            "type": "Feature",
            "properties": {
                "num": 62,
                "name": "DESPAR Szigetszentmiklós (6800470)",
                "addr_full": "Csepeli út 0188/80 hrsz",
                "city": "Szigetszentmiklós",
                "postcode": "2310"
            },
            "geometry": {
                "type": "Point",
                "coordinates": [
                    19.04811,
                    47.370638
                ]
            }
        },
        {
            "type": "Feature",
            "properties": {
                "num": 63,
                "name": "DESPAR Szántód (6801060)",
                "addr_full": "7-es főút, Siófoki út 4455/4 hrsz",
                "city": "Szántód",
                "postcode": "8622"
            },
            "geometry": {
                "type": "Point",
                "coordinates": [
                    17.904974,
                    46.861717
                ]
            }
        },
        {
            "type": "Feature",
            "properties": {
                "num": 64,
                "name": "DESPAR Tatabánya (6800260)",
                "addr_full": "Győri út 11006 hrsz.",
                "city": "Tatabánya",
                "postcode": "2800"
            },
            "geometry": {
                "type": "Point",
                "coordinates": [
                    18.387544,
                    47.598429
                ]
            }
        },
        {
            "type": "Feature",
            "properties": {
                "num": 65,
                "name": "DESPAR Tiszaföldvár (6801310)",
                "addr_full": "Kunszentmártoni út 1",
                "city": "TISZAFÖLDVÁR",
                "postcode": "5430"
            },
            "geometry": {
                "type": "Point",
                "coordinates": [
                    20.27569,
                    46.97486
                ]
            }
        },
        {
            "type": "Feature",
            "properties": {
                "num": 66,
                "name": "DESPAR Tárnok Dél (6801580)",
                "addr_full": "M7 autópálya 26 km. Dél ",
                "city": "Tárnok",
                "postcode": "2461"
            },
            "geometry": {
                "type": "Point",
                "coordinates": [
                    18.812652,
                    47.35708
                ]
            }
        },
        {
            "type": "Feature",
            "properties": {
                "num": 67,
                "name": "DESPAR Tárnok Észak (6801570)",
                "addr_full": "M7 autópálya 26 km ÉSZAK",
                "city": "Tárnok",
                "postcode": "2461"
            },
            "geometry": {
                "type": "Point",
                "coordinates": [
                    18.812576,
                    47.357124
                ]
            }
        },
        {
            "type": "Feature",
            "properties": {
                "num": 68,
                "name": "DESPAR Veszprém (6800030)",
                "addr_full": "Mártírok útja 15.",
                "city": "Veszprém",
                "postcode": "8200"
            },
            "geometry": {
                "type": "Point",
                "coordinates": [
                    17.913857,
                    47.083328
                ]
            }
        },
        {
            "type": "Feature",
            "properties": {
                "num": 69,
                "name": "DESPAR Zalaegerszeg (6800020)",
                "addr_full": "Kaszaházi út 96.",
                "city": "Zalaegerszeg",
                "postcode": "8900"
            },
            "geometry": {
                "type": "Point",
                "coordinates": [
                    16.851035,
                    46.859612
                ]
            }
        },
        {
            "type": "Feature",
            "properties": {
                "num": 70,
                "name": "DESPAR Zsámbék Dél (6801600)",
                "addr_full": "Pihenő M1 autópálya DÉL",
                "city": "ZSÁMBÉK",
                "postcode": "2072"
            },
            "geometry": {
                "type": "Point",
                "coordinates": [
                    18.734931,
                    47.510585
                ]
            }
        },
        {
            "type": "Feature",
            "properties": {
                "num": 71,
                "name": "DESPAR Zsámbék Észak (6801590)",
                "addr_full": "M1 28 KM ÉSZAK",
                "city": "ZSÁMBÉK",
                "postcode": "2072"
            },
            "geometry": {
                "type": "Point",
                "coordinates": [
                    18.737357,
                    47.511253
                ]
            }
        },
        {
            "type": "Feature",
            "properties": {
                "num": 72,
                "name": "DESPAR Érd (6800420)",
                "addr_full": "Budafoki út, 6-os sz. főút",
                "city": "Érd",
                "postcode": "2030"
            },
            "geometry": {
                "type": "Point",
                "coordinates": [
                    18.939109,
                    47.379155
                ]
            }
        },
        {
            "type": "Feature",
            "properties": {
                "num": 73,
                "name": "DESPAR Üllő (6800430)",
                "addr_full": "PESTI ÚT",
                "city": "ÜLLŐ",
                "postcode": "2225"
            },
            "geometry": {
                "type": "Point",
                "coordinates": [
                    19.322859,
                    47.390825
                ]
            }
        },
        {
            "type": "Feature",
            "properties": {
                "num": 74,
                "name": "INTERSPAR Hipermarket Tata (5320)",
                "addr_full": "Május 1. út 33.",
                "city": "Tata",
                "postcode": "2890"
            },
            "geometry": {
                "type": "Point",
                "coordinates": [
                    18.3163059,
                    47.6505719
                ]
            }
        },
        {
            "type": "Feature",
            "properties": {
                "num": 75,
                "name": "INTERSPAR hipermarket Budapest (5020)",
                "addr_full": "Üllői utca 201.",
                "city": "Budapest XIX.",
                "postcode": "1191"
            },
            "geometry": {
                "type": "Point",
                "coordinates": [
                    19.12746,
                    47.46405
                ]
            }
        },
        {
            "type": "Feature",
            "properties": {
                "num": 76,
                "name": "INTERSPAR hipermarket Budapest (5070)",
                "addr_full": "Széchenyi utca 1.",
                "city": "Budapest XX.",
                "postcode": "1203"
            },
            "geometry": {
                "type": "Point",
                "coordinates": [
                    19.10088,
                    47.43935
                ]
            }
        },
        {
            "type": "Feature",
            "properties": {
                "num": 77,
                "name": "INTERSPAR hipermarket Budapest (5180)",
                "addr_full": "Bécsi út 154.",
                "city": "Budapest III.",
                "postcode": "1032"
            },
            "geometry": {
                "type": "Point",
                "coordinates": [
                    19.028357,
                    47.546497
                ]
            }
        },
        {
            "type": "Feature",
            "properties": {
                "num": 78,
                "name": "INTERSPAR hipermarket Budapest (5190)",
                "addr_full": "Kerepesi út 61.",
                "city": "Budapest X.",
                "postcode": "1106"
            },
            "geometry": {
                "type": "Point",
                "coordinates": [
                    19.13633,
                    47.5029
                ]
            }
        },
        {
            "type": "Feature",
            "properties": {
                "num": 79,
                "name": "INTERSPAR hipermarket Budapest (5220)",
                "addr_full": "Sibrik Miklós út 32.",
                "city": "Budapest X.",
                "postcode": "1103"
            },
            "geometry": {
                "type": "Point",
                "coordinates": [
                    19.156749,
                    47.470433
                ]
            }
        },
        {
            "type": "Feature",
            "properties": {
                "num": 80,
                "name": "INTERSPAR hipermarket Budapest (5440)",
                "addr_full": "Október 23. u. 8-10.",
                "city": "Budapest XI",
                "postcode": "1117"
            },
            "geometry": {
                "type": "Point",
                "coordinates": [
                    19.04985,
                    47.47446
                ]
            }
        },
        {
            "type": "Feature",
            "properties": {
                "num": 81,
                "name": "INTERSPAR hipermarket Debrecen (5060)",
                "addr_full": "Füredi út 27.",
                "city": "Debrecen",
                "postcode": "4027"
            },
            "geometry": {
                "type": "Point",
                "coordinates": [
                    21.61981,
                    47.54167
                ]
            }
        },
        {
            "type": "Feature",
            "properties": {
                "num": 82,
                "name": "INTERSPAR hipermarket Diósd (5340)",
                "addr_full": "Balatoni út 2/a",
                "city": "Diósd",
                "postcode": "2049"
            },
            "geometry": {
                "type": "Point",
                "coordinates": [
                    18.946629,
                    47.404122
                ]
            }
        },
        {
            "type": "Feature",
            "properties": {
                "num": 83,
                "name": "INTERSPAR hipermarket Dunaújváros (5170)",
                "addr_full": "Béke körút 1.",
                "city": "Dunaújváros",
                "postcode": "2400"
            },
            "geometry": {
                "type": "Point",
                "coordinates": [
                    18.91948,
                    46.9608
                ]
            }
        },
        {
            "type": "Feature",
            "properties": {
                "num": 84,
                "name": "INTERSPAR hipermarket Gyula (5270)",
                "addr_full": "Kétegyházi út 1.",
                "city": "Gyula",
                "postcode": "5700"
            },
            "geometry": {
                "type": "Point",
                "coordinates": [
                    21.26215,
                    46.639507
                ]
            }
        },
        {
            "type": "Feature",
            "properties": {
                "num": 85,
                "name": "INTERSPAR hipermarket Győr (5010)",
                "addr_full": "Fehérvári út 3.",
                "city": "Győr",
                "postcode": "9023"
            },
            "geometry": {
                "type": "Point",
                "coordinates": [
                    17.64882,
                    47.68765
                ]
            }
        },
        {
            "type": "Feature",
            "properties": {
                "num": 86,
                "name": "INTERSPAR hipermarket Győr (5260)",
                "addr_full": "Budai út 1.",
                "city": "Győr",
                "postcode": "9027"
            },
            "geometry": {
                "type": "Point",
                "coordinates": [
                    17.64552,
                    47.69119
                ]
            }
        },
        {
            "type": "Feature",
            "properties": {
                "num": 87,
                "name": "INTERSPAR hipermarket Hódmezővásárhely (5350)",
                "addr_full": "Kaszap utca 20.",
                "city": "Hódmezővásárhely",
                "postcode": "6800"
            },
            "geometry": {
                "type": "Point",
                "coordinates": [
                    20.322447,
                    46.409886
                ]
            }
        },
        {
            "type": "Feature",
            "properties": {
                "num": 88,
                "name": "INTERSPAR hipermarket Kaposvár (5450)",
                "addr_full": "Árpád u.20.",
                "city": "Kaposvár",
                "postcode": "7400"
            },
            "geometry": {
                "type": "Point",
                "coordinates": [
                    17.811108,
                    46.363328
                ]
            }
        },
        {
            "type": "Feature",
            "properties": {
                "num": 89,
                "name": "INTERSPAR hipermarket Keszthely (5250)",
                "addr_full": "Tapolcai út 37.",
                "city": "Keszthely",
                "postcode": "8360"
            },
            "geometry": {
                "type": "Point",
                "coordinates": [
                    17.2674,
                    46.77389
                ]
            }
        },
        {
            "type": "Feature",
            "properties": {
                "num": 90,
                "name": "INTERSPAR hipermarket Miskolc (5120)",
                "addr_full": "Bajcsy-Zsilinszky út 2-4.",
                "city": "Miskolc",
                "postcode": "3527"
            },
            "geometry": {
                "type": "Point",
                "coordinates": [
                    20.79223,
                    48.10268
                ]
            }
        },
        {
            "type": "Feature",
            "properties": {
                "num": 91,
                "name": "INTERSPAR hipermarket Nagykanizsa (5380)",
                "addr_full": "Táborhely utca 4.",
                "city": "Nagykanizsa",
                "postcode": "8800"
            },
            "geometry": {
                "type": "Point",
                "coordinates": [
                    17.0112,
                    46.45345
                ]
            }
        },
        {
            "type": "Feature",
            "properties": {
                "num": 92,
                "name": "INTERSPAR hipermarket Nyíregyháza (5110)",
                "addr_full": "László utca 8.",
                "city": "Nyíregyháza",
                "postcode": "4400"
            },
            "geometry": {
                "type": "Point",
                "coordinates": [
                    21.727577,
                    47.955953
                ]
            }
        },
        {
            "type": "Feature",
            "properties": {
                "num": 93,
                "name": "INTERSPAR hipermarket Nyíregyháza (5280)",
                "addr_full": "Korányi Frigyes utca",
                "city": "Nyíregyháza II.",
                "postcode": "4400"
            },
            "geometry": {
                "type": "Point",
                "coordinates": [
                    21.72651,
                    47.97224
                ]
            }
        },
        {
            "type": "Feature",
            "properties": {
                "num": 94,
                "name": "INTERSPAR hipermarket Pápa (5310)",
                "addr_full": "Celli út 21.",
                "city": "Pápa",
                "postcode": "8500"
            },
            "geometry": {
                "type": "Point",
                "coordinates": [
                    17.456956,
                    47.329301
                ]
            }
        },
        {
            "type": "Feature",
            "properties": {
                "num": 95,
                "name": "INTERSPAR hipermarket Pécs (5090)",
                "addr_full": "Siklósi út 37.",
                "city": "Pécs",
                "postcode": "7622"
            },
            "geometry": {
                "type": "Point",
                "coordinates": [
                    18.234041,
                    46.056618
                ]
            }
        },
        {
            "type": "Feature",
            "properties": {
                "num": 96,
                "name": "INTERSPAR hipermarket Pécs (5210)",
                "addr_full": "Bajcsy-Zsilinszky utca 11.",
                "city": "Pécs",
                "postcode": "7622"
            },
            "geometry": {
                "type": "Point",
                "coordinates": [
                    18.2298371,
                    46.0714004
                ]
            }
        },
        {
            "type": "Feature",
            "properties": {
                "num": 97,
                "name": "INTERSPAR hipermarket Sopron (5240)",
                "addr_full": "Selmeci utca 15-17.",
                "city": "Sopron",
                "postcode": "9400"
            },
            "geometry": {
                "type": "Point",
                "coordinates": [
                    16.583954,
                    47.689585
                ]
            }
        },
        {
            "type": "Feature",
            "properties": {
                "num": 98,
                "name": "INTERSPAR hipermarket Szekszárd (5460)",
                "addr_full": "Tartsay utca 9.",
                "city": "Szekszárd",
                "postcode": "7100"
            },
            "geometry": {
                "type": "Point",
                "coordinates": [
                    18.71086,
                    46.3434416
                ]
            }
        },
        {
            "type": "Feature",
            "properties": {
                "num": 99,
                "name": "INTERSPAR hipermarket Szentendre (5030)",
                "addr_full": "Dobogókői u. 4.",
                "city": "Szentendre",
                "postcode": "2000"
            },
            "geometry": {
                "type": "Point",
                "coordinates": [
                    19.063413,
                    47.646068
                ]
            }
        },
        {
            "type": "Feature",
            "properties": {
                "num": 100,
                "name": "INTERSPAR hipermarket Szolnok (5140)",
                "addr_full": "Mátyás király út 29.",
                "city": "Szolnok",
                "postcode": "5000"
            },
            "geometry": {
                "type": "Point",
                "coordinates": [
                    20.182813,
                    47.179982
                ]
            }
        },
        {
            "type": "Feature",
            "properties": {
                "num": 101,
                "name": "INTERSPAR hipermarket Szombathely (5080)",
                "addr_full": "Újvilág utca",
                "city": "Szombathely",
                "postcode": "9700"
            },
            "geometry": {
                "type": "Point",
                "coordinates": [
                    16.621832,
                    47.214359
                ]
            }
        },
        {
            "type": "Feature",
            "properties": {
                "num": 102,
                "name": "INTERSPAR hipermarket Székesfehérvár (5040)",
                "addr_full": "Budai út 41.",
                "city": "Székesfehérvár",
                "postcode": "8000"
            },
            "geometry": {
                "type": "Point",
                "coordinates": [
                    18.42367,
                    47.19118
                ]
            }
        },
        {
            "type": "Feature",
            "properties": {
                "num": 103,
                "name": "INTERSPAR hipermarket Székesfehérvár (5410)",
                "addr_full": "Balatoni út 44-46.",
                "city": "Székesfehérvár",
                "postcode": "8000"
            },
            "geometry": {
                "type": "Point",
                "coordinates": [
                    18.40374,
                    47.16488
                ]
            }
        },
        {
            "type": "Feature",
            "properties": {
                "num": 104,
                "name": "INTERSPAR hipermarket Tatabánya (5130)",
                "addr_full": "Győri út 25.",
                "city": "Tatabánya",
                "postcode": "2800"
            },
            "geometry": {
                "type": "Point",
                "coordinates": [
                    18.390463,
                    47.591261
                ]
            }
        },
        {
            "type": "Feature",
            "properties": {
                "num": 105,
                "name": "INTERSPAR hipermarket Veszprém (5160)",
                "addr_full": "Dornyai Béla utca 4.",
                "city": "Veszprém",
                "postcode": "8200"
            },
            "geometry": {
                "type": "Point",
                "coordinates": [
                    17.9259,
                    47.08457
                ]
            }
        },
        {
            "type": "Feature",
            "properties": {
                "num": 106,
                "name": "INTERSPAR hipermarket Zalaegerszeg (5050)",
                "addr_full": "Ola utca 1.",
                "city": "Zalaegerszeg",
                "postcode": "8900"
            },
            "geometry": {
                "type": "Point",
                "coordinates": [
                    16.8339,
                    46.84764
                ]
            }
        },
        {
            "type": "Feature",
            "properties": {
                "num": 107,
                "name": "INTERSPAR hipermarket Érd (5360)",
                "addr_full": "Iparos utca 5.",
                "city": "Érd",
                "postcode": "2030"
            },
            "geometry": {
                "type": "Point",
                "coordinates": [
                    18.88284,
                    47.41378
                ]
            }
        },
        {
            "type": "Feature",
            "properties": {
                "num": 108,
                "name": "INTERSPAR hipermarket Ózd (5290)",
                "addr_full": "Sárli út 4.",
                "city": "Ózd",
                "postcode": "3600"
            },
            "geometry": {
                "type": "Point",
                "coordinates": [
                    20.28103,
                    48.22172
                ]
            }
        },
        {
            "type": "Feature",
            "properties": {
                "num": 109,
                "name": "OMV SPAR express Bag (6721070)",
                "addr_full": "DÓZSA GYÖRGY U. 2",
                "city": "BAG",
                "postcode": "2191"
            },
            "geometry": {
                "type": "Point",
                "coordinates": [
                    19.47399,
                    47.63777
                ]
            }
        },
        {
            "type": "Feature",
            "properties": {
                "num": 110,
                "name": "SPAR Express OMV Veszprém (6719980)",
                "addr_full": "Aradi Vértanúk útja 11.",
                "city": "Veszprém",
                "postcode": "8200"
            },
            "geometry": {
                "type": "Point",
                "coordinates": [
                    17.924475,
                    47.112271
                ]
            }
        },
        {
            "type": "Feature",
            "properties": {
                "num": 111,
                "name": "SPAR MARKET Budapest, Grassalkovich út (6915720)",
                "addr_full": "GRASSALKOVICH 256",
                "city": "BUDAPEST",
                "postcode": "1239"
            },
            "geometry": {
                "type": "Point",
                "coordinates": [
                    19.118743,
                    47.390321
                ]
            }
        },
        {
            "type": "Feature",
            "properties": {
                "num": 112,
                "name": "SPAR Partner Herend (6921000)",
                "addr_full": "Vasút út 1/c.",
                "city": "Herend",
                "postcode": "8440"
            },
            "geometry": {
                "type": "Point",
                "coordinates": [
                    17.750536,
                    47.132214
                ]
            }
        },
        {
            "type": "Feature",
            "properties": {
                "num": 113,
                "name": "SPAR Partner Pétfürdő (6920800)",
                "addr_full": "Liszt F. u. 9.",
                "city": "Pétfürdő",
                "postcode": "8105"
            },
            "geometry": {
                "type": "Point",
                "coordinates": [
                    18.125801,
                    47.156508
                ]
            }
        },
        {
            "type": "Feature",
            "properties": {
                "num": 114,
                "name": "SPAR Szupermarket (197)",
                "addr_full": "Alagút utca 5-7.",
                "city": "Budapest",
                "postcode": "1013"
            },
            "geometry": {
                "type": "Point",
                "coordinates": [
                    19.03245,
                    47.49703
                ]
            }
        },
        {
            "type": "Feature",
            "properties": {
                "num": 115,
                "name": "SPAR Szupermarket Budapest (158)",
                "addr_full": "Vágóhíd utca 3.",
                "city": "Budapest",
                "postcode": "1097"
            },
            "geometry": {
                "type": "Point",
                "coordinates": [
                    19.07699,
                    47.47197
                ]
            }
        },
        {
            "type": "Feature",
            "properties": {
                "num": 116,
                "name": "SPAR Szupermarket Budapest (167)",
                "addr_full": "Váci út 37. ",
                "city": "Budapest XIII.",
                "postcode": "1134"
            },
            "geometry": {
                "type": "Point",
                "coordinates": [
                    19.064306,
                    47.525895
                ]
            }
        },
        {
            "type": "Feature",
            "properties": {
                "num": 117,
                "name": "SPAR Szupermarket Debrecen (909)",
                "addr_full": "Derék utca 68/B. ",
                "city": "Debrecen",
                "postcode": "4031"
            },
            "geometry": {
                "type": "Point",
                "coordinates": [
                    21.599363,
                    47.521698
                ]
            }
        },
        {
            "type": "Feature",
            "properties": {
                "num": 118,
                "name": "SPAR Szupermarket Kistarcsa (182)",
                "addr_full": "Semmelweis tér 2.",
                "city": "Kistarcsa",
                "postcode": "2143"
            },
            "geometry": {
                "type": "Point",
                "coordinates": [
                    19.25325,
                    47.54091
                ]
            }
        },
        {
            "type": "Feature",
            "properties": {
                "num": 119,
                "name": "SPAR Szupermarket Komárom (367)",
                "addr_full": "Klapka György út 8/A.",
                "city": "Komárom",
                "postcode": "2900"
            },
            "geometry": {
                "type": "Point",
                "coordinates": [
                    18.11725,
                    47.743886
                ]
            }
        },
        {
            "type": "Feature",
            "properties": {
                "num": 120,
                "name": "SPAR Törökbálint, Feketerét (195)",
                "addr_full": "Feketerét utca 2.",
                "city": "Törökbálint",
                "postcode": "2045"
            },
            "geometry": {
                "type": "Point",
                "coordinates": [
                    18.903409,
                    47.451274
                ]
            }
        },
        {
            "type": "Feature",
            "properties": {
                "num": 121,
                "name": "SPAR express Budapest (6719800)",
                "addr_full": "Szilágyi Erzsébet fasor 55. ",
                "city": "Budapest",
                "postcode": "1026"
            },
            "geometry": {
                "type": "Point",
                "coordinates": [
                    19.011189,
                    47.510163
                ]
            }
        },
        {
            "type": "Feature",
            "properties": {
                "num": 122,
                "name": "SPAR express OMV Alsónémedi (6720390)",
                "addr_full": "5. számú főút 2553 hrsz",
                "city": "Alsónémedi",
                "postcode": "2351"
            },
            "geometry": {
                "type": "Point",
                "coordinates": [
                    19.17968,
                    47.30212
                ]
            }
        },
        {
            "type": "Feature",
            "properties": {
                "num": 123,
                "name": "SPAR express OMV Balatonlelle (6717040)",
                "addr_full": "Rákóczi út 3069 hrsz.",
                "city": "Balatonlelle",
                "postcode": "8638"
            },
            "geometry": {
                "type": "Point",
                "coordinates": [
                    17.6993434131,
                    46.7876292453
                ]
            }
        },
        {
            "type": "Feature",
            "properties": {
                "num": 124,
                "name": "SPAR express OMV Budapest (6717020)",
                "addr_full": "Nagykőrösi út 349",
                "city": "Budapest",
                "postcode": "1239"
            },
            "geometry": {
                "type": "Point",
                "coordinates": [
                    19.159443,
                    47.4236
                ]
            }
        },
        {
            "type": "Feature",
            "properties": {
                "num": 125,
                "name": "SPAR express OMV Budapest (6717090)",
                "addr_full": "Budaörsi út 1. (BAH csomópont)",
                "city": "Budapest",
                "postcode": "1118"
            },
            "geometry": {
                "type": "Point",
                "coordinates": [
                    19.0242397,
                    47.4867593
                ]
            }
        },
        {
            "type": "Feature",
            "properties": {
                "num": 126,
                "name": "SPAR express OMV Budapest (6717140)",
                "addr_full": "Üllői út 137.",
                "city": "Budapest",
                "postcode": "1098"
            },
            "geometry": {
                "type": "Point",
                "coordinates": [
                    19.1074857,
                    47.4714166
                ]
            }
        },
        {
            "type": "Feature",
            "properties": {
                "num": 127,
                "name": "SPAR express OMV Budapest (6717160)",
                "addr_full": "Kerepesi út 73.",
                "city": "Budapest",
                "postcode": "1106"
            },
            "geometry": {
                "type": "Point",
                "coordinates": [
                    19.150793,
                    47.504477
                ]
            }
        },
        {
            "type": "Feature",
            "properties": {
                "num": 128,
                "name": "SPAR express OMV Budapest (6717170)",
                "addr_full": "Fehérvári út 166.",
                "city": "Budapest",
                "postcode": "1116"
            },
            "geometry": {
                "type": "Point",
                "coordinates": [
                    19.038794,
                    47.451272
                ]
            }
        },
        {
            "type": "Feature",
            "properties": {
                "num": 129,
                "name": "SPAR express OMV Budapest (6717200)",
                "addr_full": "Ladik utca 1.",
                "city": "Budapest",
                "postcode": "1033"
            },
            "geometry": {
                "type": "Point",
                "coordinates": [
                    19.0445905,
                    47.5510541
                ]
            }
        },
        {
            "type": "Feature",
            "properties": {
                "num": 130,
                "name": "SPAR express OMV Budapest (6717210)",
                "addr_full": "Budafoki utca 111-113.",
                "city": "Budapest",
                "postcode": "1117"
            },
            "geometry": {
                "type": "Point",
                "coordinates": [
                    19.052095,
                    47.461479
                ]
            }
        },
        {
            "type": "Feature",
            "properties": {
                "num": 131,
                "name": "SPAR express OMV Budapest (6717280)",
                "addr_full": "Rákóczi Ferenc utca 189.",
                "city": "Budapest",
                "postcode": "1214"
            },
            "geometry": {
                "type": "Point",
                "coordinates": [
                    19.0589308,
                    47.414734
                ]
            }
        },
        {
            "type": "Feature",
            "properties": {
                "num": 132,
                "name": "SPAR express OMV Budapest (6717700)",
                "addr_full": "Pesti út 18.",
                "city": "Budapest",
                "postcode": "1173"
            },
            "geometry": {
                "type": "Point",
                "coordinates": [
                    19.2354205,
                    47.4840875
                ]
            }
        },
        {
            "type": "Feature",
            "properties": {
                "num": 133,
                "name": "SPAR express OMV Budapest (6717720)",
                "addr_full": "Budaörsi utca 112.",
                "city": "Budapest",
                "postcode": "1112"
            },
            "geometry": {
                "type": "Point",
                "coordinates": [
                    19.103918,
                    47.465336
                ]
            }
        },
        {
            "type": "Feature",
            "properties": {
                "num": 134,
                "name": "SPAR express OMV Budapest (6717740)",
                "addr_full": "Hungária krt. 175-177.",
                "city": "Budapest",
                "postcode": "1146"
            },
            "geometry": {
                "type": "Point",
                "coordinates": [
                    19.091501,
                    47.517279
                ]
            }
        },
        {
            "type": "Feature",
            "properties": {
                "num": 135,
                "name": "SPAR express OMV Budapest (6717820)",
                "addr_full": "Széchenyi tér 1.",
                "city": "Budapest",
                "postcode": "1152"
            },
            "geometry": {
                "type": "Point",
                "coordinates": [
                    19.1209905,
                    47.5605718
                ]
            }
        },
        {
            "type": "Feature",
            "properties": {
                "num": 136,
                "name": "SPAR express OMV Budapest (6717930)",
                "addr_full": "Hűvösvölgyi út 118.",
                "city": "Budapest",
                "postcode": "1021"
            },
            "geometry": {
                "type": "Point",
                "coordinates": [
                    18.9737698,
                    47.5345928
                ]
            }
        },
        {
            "type": "Feature",
            "properties": {
                "num": 137,
                "name": "SPAR express OMV Budapest (6719040)",
                "addr_full": "Teleki tér",
                "city": "Budapest",
                "postcode": "1086"
            },
            "geometry": {
                "type": "Point",
                "coordinates": [
                    19.0846625,
                    47.4934304
                ]
            }
        },
        {
            "type": "Feature",
            "properties": {
                "num": 138,
                "name": "SPAR express OMV Budapest (6719070)",
                "addr_full": "Üllői út 110-112.",
                "city": "Budapest",
                "postcode": "1101"
            },
            "geometry": {
                "type": "Point",
                "coordinates": [
                    19.109074,
                    47.4720439
                ]
            }
        },
        {
            "type": "Feature",
            "properties": {
                "num": 139,
                "name": "SPAR express OMV Budapest (6719100)",
                "addr_full": "Szabó D. út 2/B",
                "city": "Fót",
                "postcode": "2151"
            },
            "geometry": {
                "type": "Point",
                "coordinates": [
                    19.197648,
                    47.616688
                ]
            }
        },
        {
            "type": "Feature",
            "properties": {
                "num": 140,
                "name": "SPAR express OMV Budapest (6719720)",
                "addr_full": "Csömöri és Szlovák utca sarok",
                "city": "Budapest",
                "postcode": "1162"
            },
            "geometry": {
                "type": "Point",
                "coordinates": [
                    19.18064,
                    47.53493
                ]
            }
        },
        {
            "type": "Feature",
            "properties": {
                "num": 141,
                "name": "SPAR express OMV Budapest (6719740)",
                "addr_full": "Haladás utca 39.",
                "city": "Budapest",
                "postcode": "1183"
            },
            "geometry": {
                "type": "Point",
                "coordinates": [
                    19.1901158,
                    47.4459023
                ]
            }
        },
        {
            "type": "Feature",
            "properties": {
                "num": 142,
                "name": "SPAR express OMV Budapest (6719780)",
                "addr_full": "Soroksári út - Határ út sarok",
                "city": "Budapest",
                "postcode": "1097"
            },
            "geometry": {
                "type": "Point",
                "coordinates": [
                    19.094101,
                    47.442475
                ]
            }
        },
        {
            "type": "Feature",
            "properties": {
                "num": 143,
                "name": "SPAR express OMV Budapest (6719790)",
                "addr_full": "Szentendrei- Czetz János u. sarok",
                "city": "Budapest",
                "postcode": "1039"
            },
            "geometry": {
                "type": "Point",
                "coordinates": [
                    19.0497911831,
                    47.579076119
                ]
            }
        },
        {
            "type": "Feature",
            "properties": {
                "num": 144,
                "name": "SPAR express OMV Budapest (6719810)",
                "addr_full": "Váci út 77.",
                "city": "Budapest",
                "postcode": "1044"
            },
            "geometry": {
                "type": "Point",
                "coordinates": [
                    19.081533,
                    47.57714
                ]
            }
        },
        {
            "type": "Feature",
            "properties": {
                "num": 145,
                "name": "SPAR express OMV Budapest (6719830)",
                "addr_full": "Baross u. 5.",
                "city": "Budapest",
                "postcode": "1082"
            },
            "geometry": {
                "type": "Point",
                "coordinates": [
                    19.063693,
                    47.489137
                ]
            }
        },
        {
            "type": "Feature",
            "properties": {
                "num": 146,
                "name": "SPAR express OMV Budapest (6719990)",
                "addr_full": "Tölgyfa utca 1 - 3.",
                "city": "Budapest",
                "postcode": "1027"
            },
            "geometry": {
                "type": "Point",
                "coordinates": [
                    18.9748407,
                    47.435851
                ]
            }
        },
        {
            "type": "Feature",
            "properties": {
                "num": 147,
                "name": "SPAR express OMV Budapest (6720030)",
                "addr_full": "Alacskai út 1.",
                "city": "Budapest",
                "postcode": "1188"
            },
            "geometry": {
                "type": "Point",
                "coordinates": [
                    19.2074616,
                    47.4168387
                ]
            }
        },
        {
            "type": "Feature",
            "properties": {
                "num": 148,
                "name": "SPAR express OMV Budapest (6720360)",
                "addr_full": "Védgát utca 47.",
                "city": "Budapest",
                "postcode": "1215"
            },
            "geometry": {
                "type": "Point",
                "coordinates": [
                    19.084468,
                    47.436087
                ]
            }
        },
        {
            "type": "Feature",
            "properties": {
                "num": 149,
                "name": "SPAR express OMV Budapest (6720480)",
                "addr_full": "Nagykőrösi út 185.",
                "city": "Budapest",
                "postcode": "1204"
            },
            "geometry": {
                "type": "Point",
                "coordinates": [
                    19.134403,
                    47.4408156
                ]
            }
        },
        {
            "type": "Feature",
            "properties": {
                "num": 150,
                "name": "SPAR express OMV Budapest (6720530)",
                "addr_full": "Váci út 95.",
                "city": "Budapest",
                "postcode": "1139"
            },
            "geometry": {
                "type": "Point",
                "coordinates": [
                    19.0699432,
                    47.5390079
                ]
            }
        },
        {
            "type": "Feature",
            "properties": {
                "num": 151,
                "name": "SPAR express OMV Budapest (6720600)",
                "addr_full": "Szentmihályi út 131.",
                "city": "Budapest",
                "postcode": "1152"
            },
            "geometry": {
                "type": "Point",
                "coordinates": [
                    19.138835,
                    47.551514
                ]
            }
        },
        {
            "type": "Feature",
            "properties": {
                "num": 152,
                "name": "SPAR express OMV Budapest (6720720)",
                "addr_full": "Balatoni út 756/1 hrsz.",
                "city": "Budapest",
                "postcode": "1112"
            },
            "geometry": {
                "type": "Point",
                "coordinates": [
                    19.013364,
                    47.464063
                ]
            }
        },
        {
            "type": "Feature",
            "properties": {
                "num": 153,
                "name": "SPAR express OMV Budapest (6720730)",
                "addr_full": "Róbert Károly krt. 64-66.",
                "city": "Budapest",
                "postcode": "1134"
            },
            "geometry": {
                "type": "Point",
                "coordinates": [
                    19.075513,
                    47.5270563
                ]
            }
        },
        {
            "type": "Feature",
            "properties": {
                "num": 154,
                "name": "SPAR express OMV Budapest (6720740)",
                "addr_full": "Hungária  körút 116.",
                "city": "Budapest",
                "postcode": "1141"
            },
            "geometry": {
                "type": "Point",
                "coordinates": [
                    19.101894,
                    47.50853
                ]
            }
        },
        {
            "type": "Feature",
            "properties": {
                "num": 155,
                "name": "SPAR express OMV Budapest (6720750)",
                "addr_full": "Fogarasi út 56/a",
                "city": "Budapest",
                "postcode": "1149"
            },
            "geometry": {
                "type": "Point",
                "coordinates": [
                    19.1205336,
                    47.5047833
                ]
            }
        },
        {
            "type": "Feature",
            "properties": {
                "num": 156,
                "name": "SPAR express OMV Budapest (6720810)",
                "addr_full": "Kacsóh Pongrác út 131.",
                "city": "Budapest",
                "postcode": "1142"
            },
            "geometry": {
                "type": "Point",
                "coordinates": [
                    19.1023526,
                    47.5327743
                ]
            }
        },
        {
            "type": "Feature",
            "properties": {
                "num": 157,
                "name": "SPAR express OMV Budapest (6720820)",
                "addr_full": "Kőrösi Csoma S. út hrsz. 39184/4",
                "city": "Budapest",
                "postcode": "1102"
            },
            "geometry": {
                "type": "Point",
                "coordinates": [
                    19.138241,
                    47.491364
                ]
            }
        },
        {
            "type": "Feature",
            "properties": {
                "num": 158,
                "name": "SPAR express OMV Békéscsaba (6720330)",
                "addr_full": "Szarvasi út 103.",
                "city": "Békéscsaba",
                "postcode": "5600"
            },
            "geometry": {
                "type": "Point",
                "coordinates": [
                    21.0597964,
                    46.6837338
                ]
            }
        },
        {
            "type": "Feature",
            "properties": {
                "num": 159,
                "name": "SPAR express OMV Debrecen (6717240)",
                "addr_full": "István út 137.",
                "city": "Debrecen",
                "postcode": "4031"
            },
            "geometry": {
                "type": "Point",
                "coordinates": [
                    21.605806,
                    47.516091
                ]
            }
        },
        {
            "type": "Feature",
            "properties": {
                "num": 160,
                "name": "SPAR express OMV Debrecen (6717940)",
                "addr_full": "Füredi út 27.",
                "city": "Debrecen",
                "postcode": "4027"
            },
            "geometry": {
                "type": "Point",
                "coordinates": [
                    21.620341,
                    47.54172
                ]
            }
        },
        {
            "type": "Feature",
            "properties": {
                "num": 161,
                "name": "SPAR express OMV Debrecen (6720670)",
                "addr_full": "Kassai utca 92.",
                "city": "Debrecen",
                "postcode": "4028"
            },
            "geometry": {
                "type": "Point",
                "coordinates": [
                    21.648301,
                    47.551512
                ]
            }
        },
        {
            "type": "Feature",
            "properties": {
                "num": 162,
                "name": "SPAR express OMV Dunaharaszti (6719860)",
                "addr_full": "51. számú - Némedi út sarok",
                "city": "Dunaharaszti",
                "postcode": "2330"
            },
            "geometry": {
                "type": "Point",
                "coordinates": [
                    19.0970722,
                    47.3536817
                ]
            }
        },
        {
            "type": "Feature",
            "properties": {
                "num": 163,
                "name": "SPAR express OMV Dunaújváros (6719090)",
                "addr_full": "Aranyvölgyi utca",
                "city": "Dunaújváros",
                "postcode": "2400"
            },
            "geometry": {
                "type": "Point",
                "coordinates": [
                    18.9363084733,
                    46.9669211954
                ]
            }
        },
        {
            "type": "Feature",
            "properties": {
                "num": 164,
                "name": "SPAR express OMV Eger (6717100)",
                "addr_full": "Mátyás király út 134.",
                "city": "Eger",
                "postcode": "3300"
            },
            "geometry": {
                "type": "Point",
                "coordinates": [
                    20.381903,
                    47.87654
                ]
            }
        },
        {
            "type": "Feature",
            "properties": {
                "num": 165,
                "name": "SPAR express OMV Eger (6720510)",
                "addr_full": "Mátyás király út 2.",
                "city": "Eger",
                "postcode": "3300"
            },
            "geometry": {
                "type": "Point",
                "coordinates": [
                    20.3790417,
                    47.890619
                ]
            }
        },
        {
            "type": "Feature",
            "properties": {
                "num": 166,
                "name": "SPAR express OMV Győr (6717710)",
                "addr_full": "Pápai út 771.",
                "city": "Győr",
                "postcode": "9024"
            },
            "geometry": {
                "type": "Point",
                "coordinates": [
                    17.633928,
                    47.656914
                ]
            }
        },
        {
            "type": "Feature",
            "properties": {
                "num": 167,
                "name": "SPAR express OMV Győr (6720790)",
                "addr_full": "Szt. István út 7096 hrsz.",
                "city": "Győr",
                "postcode": "9022"
            },
            "geometry": {
                "type": "Point",
                "coordinates": [
                    17.6254,
                    47.681304
                ]
            }
        },
        {
            "type": "Feature",
            "properties": {
                "num": 168,
                "name": "SPAR express OMV Kaposvár (6720780)",
                "addr_full": "Áchim András u. 113/14 hrsz.",
                "city": "Kaposvár",
                "postcode": "7400"
            },
            "geometry": {
                "type": "Point",
                "coordinates": [
                    17.7854394,
                    46.354611
                ]
            }
        },
        {
            "type": "Feature",
            "properties": {
                "num": 169,
                "name": "SPAR express OMV Kecskemét (6719890)",
                "addr_full": "Budai út",
                "city": "Kecskemét",
                "postcode": "6000"
            },
            "geometry": {
                "type": "Point",
                "coordinates": [
                    19.6793,
                    46.9209
                ]
            }
        },
        {
            "type": "Feature",
            "properties": {
                "num": 170,
                "name": "SPAR express OMV Kecskemét (6720640)",
                "addr_full": "Dunaföldvári út 4.",
                "city": "Kecskemét",
                "postcode": "6000"
            },
            "geometry": {
                "type": "Point",
                "coordinates": [
                    19.633916,
                    46.888241
                ]
            }
        },
        {
            "type": "Feature",
            "properties": {
                "num": 171,
                "name": "SPAR express OMV Kiskőrös (6719150)",
                "addr_full": "Dózsa György út 99.",
                "city": "Kiskőrös",
                "postcode": "6200"
            },
            "geometry": {
                "type": "Point",
                "coordinates": [
                    19.274241,
                    46.625715
                ]
            }
        },
        {
            "type": "Feature",
            "properties": {
                "num": 172,
                "name": "SPAR express OMV Komárom (6719900)",
                "addr_full": "Igmándi út 49.",
                "city": "Komárom",
                "postcode": "2900"
            },
            "geometry": {
                "type": "Point",
                "coordinates": [
                    18.11817,
                    47.738449
                ]
            }
        },
        {
            "type": "Feature",
            "properties": {
                "num": 173,
                "name": "SPAR express OMV Körmend (6720200)",
                "addr_full": "Rákóczi út 307/1 hrsz. ",
                "city": "Körmend",
                "postcode": "9900"
            },
            "geometry": {
                "type": "Point",
                "coordinates": [
                    16.616998,
                    47.020731
                ]
            }
        },
        {
            "type": "Feature",
            "properties": {
                "num": 174,
                "name": "SPAR express OMV Maglód (6719160)",
                "addr_full": "Jászberényi út hrsz. 1528/1.",
                "city": "Maglód",
                "postcode": "2234"
            },
            "geometry": {
                "type": "Point",
                "coordinates": [
                    19.361174,
                    47.449461
                ]
            }
        },
        {
            "type": "Feature",
            "properties": {
                "num": 175,
                "name": "SPAR express OMV Makó (6720770)",
                "addr_full": "Kossuth Lajos utca",
                "city": "Makó",
                "postcode": "6900"
            },
            "geometry": {
                "type": "Point",
                "coordinates": [
                    20.47701,
                    46.22034
                ]
            }
        },
        {
            "type": "Feature",
            "properties": {
                "num": 176,
                "name": "SPAR express OMV Miskolc (6717080)",
                "addr_full": "Búza tér 16",
                "city": "Miskolc",
                "postcode": "3526"
            },
            "geometry": {
                "type": "Point",
                "coordinates": [
                    20.789879,
                    48.105664
                ]
            }
        },
        {
            "type": "Feature",
            "properties": {
                "num": 177,
                "name": "SPAR express OMV Miskolc (6719170)",
                "addr_full": "Kiss Tábornok - Kandó Kálmán utca sarok",
                "city": "Miskolc",
                "postcode": "3534"
            },
            "geometry": {
                "type": "Point",
                "coordinates": [
                    20.70297,
                    48.099723
                ]
            }
        },
        {
            "type": "Feature",
            "properties": {
                "num": 178,
                "name": "SPAR express OMV Miskolc (6720300)",
                "addr_full": "Testvérvárosok útja 2/A",
                "city": "Miskolc",
                "postcode": "3529"
            },
            "geometry": {
                "type": "Point",
                "coordinates": [
                    20.78413,
                    48.083609
                ]
            }
        },
        {
            "type": "Feature",
            "properties": {
                "num": 179,
                "name": "SPAR express OMV Mosonmagyaróvár (6719180)",
                "addr_full": "Kossuth L. u. 69.",
                "city": "Mosonmagyaróvár",
                "postcode": "9200"
            },
            "geometry": {
                "type": "Point",
                "coordinates": [
                    17.26738,
                    47.866351
                ]
            }
        },
        {
            "type": "Feature",
            "properties": {
                "num": 180,
                "name": "SPAR express OMV Nagykanizsa (6717030)",
                "addr_full": "Hevesi Sándor  utca 5",
                "city": "Nagykanizsa",
                "postcode": "8800"
            },
            "geometry": {
                "type": "Point",
                "coordinates": [
                    17.009847,
                    46.456071
                ]
            }
        },
        {
            "type": "Feature",
            "properties": {
                "num": 181,
                "name": "SPAR express OMV Nyékládháza (6719200)",
                "addr_full": "Viola u. 183/8. ",
                "city": "Nyékládháza",
                "postcode": "3433"
            },
            "geometry": {
                "type": "Point",
                "coordinates": [
                    20.834165,
                    47.986909
                ]
            }
        },
        {
            "type": "Feature",
            "properties": {
                "num": 182,
                "name": "SPAR express OMV Nyíregyháza (6717250)",
                "addr_full": "Debreceni út 99.",
                "city": "Nyíregyháza",
                "postcode": "4400"
            },
            "geometry": {
                "type": "Point",
                "coordinates": [
                    21.718339,
                    47.936243
                ]
            }
        },
        {
            "type": "Feature",
            "properties": {
                "num": 183,
                "name": "SPAR express OMV Nyíregyháza (6719910)",
                "addr_full": "Tiszavasvári út- Alkotás út sarok",
                "city": "Nyíregyháza",
                "postcode": "4400"
            },
            "geometry": {
                "type": "Point",
                "coordinates": [
                    21.685581,
                    47.957281
                ]
            }
        },
        {
            "type": "Feature",
            "properties": {
                "num": 184,
                "name": "SPAR express OMV Nyíregyháza (6720230)",
                "addr_full": "Kert utca 47.",
                "city": "Nyíregyháza",
                "postcode": "4400"
            },
            "geometry": {
                "type": "Point",
                "coordinates": [
                    21.725386,
                    47.944923
                ]
            }
        },
        {
            "type": "Feature",
            "properties": {
                "num": 185,
                "name": "SPAR express OMV Pécs (6719920)",
                "addr_full": "Zsolnay út 50.",
                "city": "Pécs",
                "postcode": "7630"
            },
            "geometry": {
                "type": "Point",
                "coordinates": [
                    18.256109,
                    46.080449
                ]
            }
        },
        {
            "type": "Feature",
            "properties": {
                "num": 186,
                "name": "SPAR express OMV Pécs (6720490)",
                "addr_full": "Siklósi út 45.",
                "city": "Pécs",
                "postcode": "7622"
            },
            "geometry": {
                "type": "Point",
                "coordinates": [
                    18.232378,
                    46.044689
                ]
            }
        },
        {
            "type": "Feature",
            "properties": {
                "num": 187,
                "name": "SPAR express OMV Siófok (6717070)",
                "addr_full": "Vak Bottyán út 1.",
                "city": "Siófok",
                "postcode": "8600"
            },
            "geometry": {
                "type": "Point",
                "coordinates": [
                    18.0484459,
                    46.90163
                ]
            }
        },
        {
            "type": "Feature",
            "properties": {
                "num": 188,
                "name": "SPAR express OMV Sopron (6717760)",
                "addr_full": "Csengery utca 93",
                "city": "Sopron",
                "postcode": "9400"
            },
            "geometry": {
                "type": "Point",
                "coordinates": [
                    16.596474,
                    47.676419
                ]
            }
        },
        {
            "type": "Feature",
            "properties": {
                "num": 189,
                "name": "SPAR express OMV Sopron (6720700)",
                "addr_full": "Lackner Kristóf utca 29.",
                "city": "Sopron",
                "postcode": "9400"
            },
            "geometry": {
                "type": "Point",
                "coordinates": [
                    16.582571,
                    47.690915
                ]
            }
        },
        {
            "type": "Feature",
            "properties": {
                "num": 190,
                "name": "SPAR express OMV Szeged (6720340)",
                "addr_full": "Makkosházi krt. 1.",
                "city": "Szeged",
                "postcode": "6723"
            },
            "geometry": {
                "type": "Point",
                "coordinates": [
                    20.1579439,
                    46.2733692
                ]
            }
        },
        {
            "type": "Feature",
            "properties": {
                "num": 191,
                "name": "SPAR express OMV Szekszárd (6720420)",
                "addr_full": "Tartsay Vilmos u. 8/B.",
                "city": "Szekszárd",
                "postcode": "7100"
            },
            "geometry": {
                "type": "Point",
                "coordinates": [
                    18.711037,
                    46.340517
                ]
            }
        },
        {
            "type": "Feature",
            "properties": {
                "num": 192,
                "name": "SPAR express OMV Szentendre (6717060)",
                "addr_full": "11-es út 17. km",
                "city": "Szentendre",
                "postcode": "2000"
            },
            "geometry": {
                "type": "Point",
                "coordinates": [
                    19.0674,
                    47.641814
                ]
            }
        },
        {
            "type": "Feature",
            "properties": {
                "num": 193,
                "name": "SPAR express OMV Szigetszentmiklós (6717730)",
                "addr_full": "M0 19-es km",
                "city": "Szigetszentmiklós",
                "postcode": "2310"
            },
            "geometry": {
                "type": "Point",
                "coordinates": [
                    19.0528,
                    47.3796
                ]
            }
        },
        {
            "type": "Feature",
            "properties": {
                "num": 194,
                "name": "SPAR express OMV Szolnok (6717950)",
                "addr_full": "Thököly út 51.",
                "city": "Szolnok",
                "postcode": "5000"
            },
            "geometry": {
                "type": "Point",
                "coordinates": [
                    20.183801,
                    47.182342
                ]
            }
        },
        {
            "type": "Feature",
            "properties": {
                "num": 195,
                "name": "SPAR express OMV Szombathely (6717130)",
                "addr_full": "Körmendi út 92.",
                "city": "Szombathely",
                "postcode": "9700"
            },
            "geometry": {
                "type": "Point",
                "coordinates": [
                    16.618967,
                    47.211575
                ]
            }
        },
        {
            "type": "Feature",
            "properties": {
                "num": 196,
                "name": "SPAR express OMV Székesfehérvár (6719260)",
                "addr_full": "Donáth utca 6",
                "city": "Székesfehérvár",
                "postcode": "8000"
            },
            "geometry": {
                "type": "Point",
                "coordinates": [
                    18.458692,
                    47.195781
                ]
            }
        },
        {
            "type": "Feature",
            "properties": {
                "num": 197,
                "name": "SPAR express OMV Székesfehérvár (6720630)",
                "addr_full": "Budai út 29.",
                "city": "Székesfehérvár",
                "postcode": "8000"
            },
            "geometry": {
                "type": "Point",
                "coordinates": [
                    18.4224656,
                    47.1911958
                ]
            }
        },
        {
            "type": "Feature",
            "properties": {
                "num": 198,
                "name": "SPAR express OMV Tatabánya (6720320)",
                "addr_full": "Károlyi út, Ságvári út 4.",
                "city": "Tatabánya",
                "postcode": "2800"
            },
            "geometry": {
                "type": "Point",
                "coordinates": [
                    18.4204121,
                    47.5560605
                ]
            }
        },
        {
            "type": "Feature",
            "properties": {
                "num": 199,
                "name": "SPAR express OMV Vecsés (6720970)",
                "addr_full": "Gyáli út 20-22.",
                "city": "Vecsés",
                "postcode": "2220"
            },
            "geometry": {
                "type": "Point",
                "coordinates": [
                    19.2482949793,
                    47.3992422311
                ]
            }
        },
        {
            "type": "Feature",
            "properties": {
                "num": 200,
                "name": "SPAR express OMV Veszprém (6717120)",
                "addr_full": "Budapesti út 12.",
                "city": "Veszprém",
                "postcode": "8200"
            },
            "geometry": {
                "type": "Point",
                "coordinates": [
                    17.9164813,
                    47.0944911
                ]
            }
        },
        {
            "type": "Feature",
            "properties": {
                "num": 201,
                "name": "SPAR express OMV Vác (6717110)",
                "addr_full": "Gödöllői út 1.",
                "city": "Vác",
                "postcode": "2600"
            },
            "geometry": {
                "type": "Point",
                "coordinates": [
                    19.1408,
                    47.764058
                ]
            }
        },
        {
            "type": "Feature",
            "properties": {
                "num": 202,
                "name": "SPAR express OMV Zalaegerszeg (6719350)",
                "addr_full": "Göcseji utca 26",
                "city": "Zalaegerszeg",
                "postcode": "8900"
            },
            "geometry": {
                "type": "Point",
                "coordinates": [
                    16.830809,
                    46.835042
                ]
            }
        },
        {
            "type": "Feature",
            "properties": {
                "num": 203,
                "name": "SPAR express OMV Zsámbék (6717050)",
                "addr_full": "Herceghalmi út 578/A.",
                "city": "Zsámbék",
                "postcode": "2072"
            },
            "geometry": {
                "type": "Point",
                "coordinates": [
                    18.723711,
                    47.541014
                ]
            }
        },
        {
            "type": "Feature",
            "properties": {
                "num": 204,
                "name": "SPAR express OMV Üröm (6717570)",
                "addr_full": "Bécsi út 2.",
                "city": "Üröm",
                "postcode": "2096"
            },
            "geometry": {
                "type": "Point",
                "coordinates": [
                    18.99847,
                    47.584936
                ]
            }
        },